[
    {
        "location": "台積電十二廠P8停車場入口",
        "lat": 24.7671311,
        "lng": 121.0078574
    },
    {
        "location": "張忠謀大樓",
        "lat": 24.7726658,
        "lng": 121.0106521
    },
    {
        "location": "新竹老爺酒店",
        "lat": 24.779136,
        "lng": 121.0185942
    },
    {
        "location": "星巴克介壽門市",
        "lat": 24.777334,
        "lng": 121.0195432
    },
    {
        "location": "交大土地公",
        "lat": 24.7890656,
        "lng": 120.9998126
    },
    {
        "location": "中油科學園區站",
        "lat": 24.7787088,
        "lng": 121.00311
    },
    {
        "location": "新竹火車站",
        "lat": 24.801628,
        "lng": 120.9653506
    },
    {
        "location": "新竹高鐵站",
        "lat": 24.8047477,
        "lng": 121.0361998
    },
    {
        "location": "竹北喜來登飯店",
        "lat": 24.8142323,
        "lng": 121.0209559
    },
    {
        "location": "清大北校門",
        "lat": 24.795934,
        "lng": 120.9949888
    }
]